[
   {
      "model": "stations.station",
      "pk": 1,
      "fields": {
         "code": "AAK",
         "start_date": "655689600.00000",
         "end_date": "9999999999.99900",
         "latitude": "42.6375",
         "longitude": "74.4942",
         "elevation": "1.6331",
         "site": "Ala Archa, Kyrgyzstan",
         "network_id": 1
      }
   },
   {
      "model": "stations.station",
      "pk": 2,
      "fields": {
         "code": "ABKT",
         "start_date": "735696000.00000",
         "end_date": "1388447999.90000",
         "latitude": "37.9304",
         "longitude": "58.1189",
         "elevation": "0.6780",
         "site": "Alibek, Turkmenistan",
         "network_id": 1
      }
   },
   {
      "model": "stations.station",
      "pk": 3,
      "fields": {
         "code": "ABPO",
         "start_date": "1175644800.00000",
         "end_date": "9999999999.99900",
         "latitude": "-19.0180",
         "longitude": "47.2290",
         "elevation": "1.5280",
         "site": "Ambohimpanompo, Madagascar",
         "network_id": 1
      }
   },
   {
      "model": "stations.station",
      "pk": 4,
      "fields": {
         "code": "ALE",
         "start_date": "635385600.00000",
         "end_date": "9999999999.99900",
         "latitude": "82.5033",
         "longitude": "-62.3500",
         "elevation": "0.0600",
         "site": "Alert, NU, Canada",
         "network_id": 1
      }
   },
   {
      "model": "stations.station",
      "pk": 5,
      "fields": {
         "code": "ARU",
         "start_date": "590198400.00000",
         "end_date": "1254095999.90000",
         "latitude": "56.4302",
         "longitude": "58.5625",
         "elevation": "0.2500",
         "site": "Arti, Russia",
         "network_id": 1
      }
   },
   {
      "model": "stations.station",
      "pk": 6,
      "fields": {
         "code": "ARU",
         "start_date": "1254096000.00000",
         "end_date": "1536451199.99900",
         "latitude": "56.4293",
         "longitude": "58.5615",
         "elevation": "0.2600",
         "site": "Arti, Russia",
         "network_id": 1
      }
   },
   {
      "model": "stations.station",
      "pk": 7,
      "fields": {
         "code": "ARTI",
         "start_date": "1536451200.00000",
         "end_date": "9999999999.99900",
         "latitude": "56.3879",
         "longitude": "58.3849",
         "elevation": "0.3200",
         "site": "Arti, Russia",
         "network_id": 1
      }
   },
   {
      "model": "stations.station",
      "pk": 8,
      "fields": {
         "code": "ASCN",
         "start_date": "780969600.00000",
         "end_date": "9999999999.99900",
         "latitude": "-7.9327",
         "longitude": "-14.3601",
         "elevation": "0.1730",
         "site": "Butt Crater, Ascension Island",
         "network_id": 1
      }
   },
   {
      "model": "stations.station",
      "pk": 9,
      "fields": {
         "code": "BFO",
         "start_date": "833328000.00000",
         "end_date": "9999999999.99900",
         "latitude": "48.3301",
         "longitude": "8.3296",
         "elevation": "0.6380",
         "site": "Black Forest Observatory, Schiltach, Germany",
         "network_id": 1
      }
   },
   {
      "model": "stations.station",
      "pk": 10,
      "fields": {
         "code": "BORG",
         "start_date": "775526400.00000",
         "end_date": "9999999999.99900",
         "latitude": "64.7474",
         "longitude": "-21.3268",
         "elevation": "0.1100",
         "site": "Borgarfjordur, Asbjarnarstadir, Iceland",
         "network_id": 1
      }
   },
   {
      "model": "stations.station",
      "pk": 11,
      "fields": {
         "code": "BORK",
         "start_date": "1566432000.00000",
         "end_date": "9999999999.99900",
         "latitude": "53.0461",
         "longitude": "70.3184",
         "elevation": "0.3340",
         "site": "Burabay, Kazakhstan",
         "network_id": 1
      }
   },
   {
      "model": "stations.station",
      "pk": 12,
      "fields": {
         "code": "BRVK",
         "start_date": "778377600.00000",
         "end_date": "1566431999.99900",
         "latitude": "53.0581",
         "longitude": "70.2828",
         "elevation": "0.3300",
         "site": "Borovoye, Kazakhstan",
         "network_id": 1
      }
   },
   {
      "model": "stations.station",
      "pk": 13,
      "fields": {
         "code": "CMLA",
         "start_date": "826416000.00000",
         "end_date": "9999999999.99900",
         "latitude": "37.7637",
         "longitude": "-25.5243",
         "elevation": "0.4290",
         "site": "Cha de Macela, Sao Miguel Island, Azores",
         "network_id": 1
      }
   },
   {
      "model": "stations.station",
      "pk": 14,
      "fields": {
         "code": "COCO",
         "start_date": "850608000.00000",
         "end_date": "9999999999.99900",
         "latitude": "-12.1901",
         "longitude": "96.8349",
         "elevation": "0.0010",
         "site": "West Island, Cocos (Keeling) Islands",
         "network_id": 1
      }
   },
   {
      "model": "stations.station",
      "pk": 15,
      "fields": {
         "code": "DGAR",
         "start_date": "1074729600.00000",
         "end_date": "9999999999.99900",
         "latitude": "-7.4121",
         "longitude": "72.4525",
         "elevation": "0.0010",
         "site": "Diego Garcia, Chagos Islands, Indian Ocean",
         "network_id": 1
      }
   },
   {
      "model": "stations.station",
      "pk": 16,
      "fields": {
         "code": "EFI",
         "start_date": "824428800.00000",
         "end_date": "9999999999.99900",
         "latitude": "-51.6753",
         "longitude": "-58.0637",
         "elevation": "0.1100",
         "site": "Mount Kent, East Falkland Island",
         "network_id": 1
      }
   },
   {
      "model": "stations.station",
      "pk": 17,
      "fields": {
         "code": "ERM",
         "start_date": "643248000.00000",
         "end_date": "9999999999.99900",
         "latitude": "42.0150",
         "longitude": "143.1572",
         "elevation": "0.0400",
         "site": "Erimo, Hokkaido Island, Japan",
         "network_id": 1
      }
   },
   {
      "model": "stations.station",
      "pk": 18,
      "fields": {
         "code": "ESK",
         "start_date": "563760000.00000",
         "end_date": "9999999999.99900",
         "latitude": "55.3167",
         "longitude": "-3.2050",
         "elevation": "0.2420",
         "site": "Eskdalemuir, Scotland, UK",
         "network_id": 1
      }
   },
   {
      "model": "stations.station",
      "pk": 19,
      "fields": {
         "code": "FFC",
         "start_date": "746496000.00000",
         "end_date": "9999999999.99900",
         "latitude": "54.7250",
         "longitude": "-101.9783",
         "elevation": "0.3380",
         "site": "Flin Flon, Canada",
         "network_id": 1
      }
   },
   {
      "model": "stations.station",
      "pk": 20,
      "fields": {
         "code": "GAR",
         "start_date": "590198400.00000",
         "end_date": "707097599.90000",
         "latitude": "39.0052",
         "longitude": "70.3328",
         "elevation": "1.3000",
         "site": "Garm, Tajikistan",
         "network_id": 1
      }
   },
   {
      "model": "stations.station",
      "pk": 21,
      "fields": {
         "code": "HOPE",
         "start_date": "850176000.00000",
         "end_date": "9999999999.99900",
         "latitude": "-54.2836",
         "longitude": "-36.4879",
         "elevation": "0.0200",
         "site": "Hope Point, South Georgia Island",
         "network_id": 1
      }
   },
   {
      "model": "stations.station",
      "pk": 22,
      "fields": {
         "code": "JTS",
         "start_date": "798595200.00000",
         "end_date": "9999999999.99900",
         "latitude": "10.2908",
         "longitude": "-84.9525",
         "elevation": "0.3400",
         "site": "Las Juntas de Abangares, Costa Rica",
         "network_id": 1
      }
   },
   {
      "model": "stations.station",
      "pk": 23,
      "fields": {
         "code": "KAPI",
         "start_date": "918259200.00000",
         "end_date": "9999999999.99900",
         "latitude": "-5.0142",
         "longitude": "119.7517",
         "elevation": "0.3000",
         "site": "Kappang, Sulawesi, Indonesia",
         "network_id": 1
      }
   },
   {
      "model": "stations.station",
      "pk": 24,
      "fields": {
         "code": "KDAK",
         "start_date": "865814400.00000",
         "end_date": "9999999999.99900",
         "latitude": "57.7828",
         "longitude": "-152.5835",
         "elevation": "0.1520",
         "site": "Kodiak Island, Alaska, USA",
         "network_id": 1
      }
   },
   {
      "model": "stations.station",
      "pk": 25,
      "fields": {
         "code": "KIV",
         "start_date": "590198400.00000",
         "end_date": "760060799.90000",
         "latitude": "43.9562",
         "longitude": "42.6888",
         "elevation": "1.2100",
         "site": "Kislovodsk, Russia",
         "network_id": 1
      }
   },
   {
      "model": "stations.station",
      "pk": 26,
      "fields": {
         "code": "KIV",
         "start_date": "760060800.00000",
         "end_date": "9999999999.99900",
         "latitude": "43.9553",
         "longitude": "42.6863",
         "elevation": "1.0540",
         "site": "Kislovodsk, Russia",
         "network_id": 1
      }
   },
   {
      "model": "stations.station",
      "pk": 27,
      "fields": {
         "code": "KURK",
         "start_date": "796176000.00000",
         "end_date": "9999999999.99900",
         "latitude": "50.7154",
         "longitude": "78.6202",
         "elevation": "0.1840",
         "site": "Kurchatov, Kazakhstan",
         "network_id": 1
      }
   },
   {
      "model": "stations.station",
      "pk": 28,
      "fields": {
         "code": "KWAJ",
         "start_date": "930009600.00000",
         "end_date": "1502226539.99900",
         "latitude": "8.8019",
         "longitude": "167.6130",
         "elevation": "0.0000",
         "site": "Kwajalein Atoll, Pacific Ocean",
         "network_id": 1
      }
   },
   {
      "model": "stations.station",
      "pk": 29,
      "fields": {
         "code": "KWJN",
         "start_date": "1501286400.00000",
         "end_date": "9999999999.99900",
         "latitude": "9.2873",
         "longitude": "167.5369",
         "elevation": "0.0000",
         "site": "Gagan, Kwajalein Atoll, Marshall Islands",
         "network_id": 1
      }
   },
   {
      "model": "stations.station",
      "pk": 30,
      "fields": {
         "code": "LVZ",
         "start_date": "723168000.00000",
         "end_date": "9999999999.99900",
         "latitude": "67.8979",
         "longitude": "34.6514",
         "elevation": "0.6300",
         "site": "Lovozero, Russia",
         "network_id": 1
      }
   },
   {
      "model": "stations.station",
      "pk": 31,
      "fields": {
         "code": "MBAR",
         "start_date": "937958400.00000",
         "end_date": "9999999999.99900",
         "latitude": "-0.6019",
         "longitude": "30.7382",
         "elevation": "1.3900",
         "site": "Mbarara, Uganda",
         "network_id": 1
      }
   },
   {
      "model": "stations.station",
      "pk": 32,
      "fields": {
         "code": "MSEY",
         "start_date": "800496000.00000",
         "end_date": "9999999999.99900",
         "latitude": "-4.6737",
         "longitude": "55.4792",
         "elevation": "0.4750",
         "site": "Mahe, Seychelles",
         "network_id": 1
      }
   },
   {
      "model": "stations.station",
      "pk": 33,
      "fields": {
         "code": "MSVF",
         "start_date": "769737600.00000",
         "end_date": "9999999999.99900",
         "latitude": "-17.7448",
         "longitude": "178.0528",
         "elevation": "0.8011",
         "site": "Monasavu, Fiji",
         "network_id": 1
      }
   },
   {
      "model": "stations.station",
      "pk": 34,
      "fields": {
         "code": "NIL",
         "start_date": "787708800.00000",
         "end_date": "9999999999.99900",
         "latitude": "33.6506",
         "longitude": "73.2686",
         "elevation": "0.6290",
         "site": "Nilore, Pakistan",
         "network_id": 1
      }
   },
   {
      "model": "stations.station",
      "pk": 35,
      "fields": {
         "code": "NNA",
         "start_date": "582940800.00000",
         "end_date": "9999999999.99900",
         "latitude": "-11.9875",
         "longitude": "-76.8422",
         "elevation": "0.5750",
         "site": "Nana, Peru",
         "network_id": 1
      }
   },
   {
      "model": "stations.station",
      "pk": 36,
      "fields": {
         "code": "NRIL",
         "start_date": "724377600.00000",
         "end_date": "939859199.90000",
         "latitude": "69.5049",
         "longitude": "88.4414",
         "elevation": "0.0920",
         "site": "Norilsk, Russia",
         "network_id": 1
      }
   },
   {
      "model": "stations.station",
      "pk": 37,
      "fields": {
         "code": "NVS",
         "start_date": "711158400.00000",
         "end_date": "761356799.90000",
         "latitude": "54.8404",
         "longitude": "83.2346",
         "elevation": "0.1500",
         "site": "Novosibirsk, Russia",
         "network_id": 1
      }
   },
   {
      "model": "stations.station",
      "pk": 38,
      "fields": {
         "code": "OBN",
         "start_date": "590198400.00000",
         "end_date": "9999999999.99900",
         "latitude": "55.1146",
         "longitude": "36.5674",
         "elevation": "0.1600",
         "site": "Obninsk, Russia",
         "network_id": 1
      }
   },
   {
      "model": "stations.station",
      "pk": 39,
      "fields": {
         "code": "PALK",
         "start_date": "966902400.00000",
         "end_date": "9999999999.99900",
         "latitude": "7.2728",
         "longitude": "80.7022",
         "elevation": "0.4600",
         "site": "Pallekele, Sri Lanka",
         "network_id": 1
      }
   },
   {
      "model": "stations.station",
      "pk": 40,
      "fields": {
         "code": "PFO",
         "start_date": "530496000.00000",
         "end_date": "1152748799.90000",
         "latitude": "33.6092",
         "longitude": "-116.4553",
         "elevation": "1.2800",
         "site": "Pinon Flat, California, USA",
         "network_id": 1
      }
   },
   {
      "model": "stations.station",
      "pk": 41,
      "fields": {
         "code": "PFO",
         "start_date": "1152748800.00000",
         "end_date": "9999999999.99900",
         "latitude": "33.6107",
         "longitude": "-116.4555",
         "elevation": "1.2800",
         "site": "Pinon Flat, California, USA",
         "network_id": 1
      }
   },
   {
      "model": "stations.station",
      "pk": 42,
      "fields": {
         "code": "RAYN",
         "start_date": "820454400.00000",
         "end_date": "9999999999.99900",
         "latitude": "23.5225",
         "longitude": "45.5032",
         "elevation": "0.6310",
         "site": "Ar Rayn, Saudi Arabia",
         "network_id": 1
      }
   },
   {
      "model": "stations.station",
      "pk": 43,
      "fields": {
         "code": "RPN",
         "start_date": "550713600.00000",
         "end_date": "9999999999.99900",
         "latitude": "-27.1267",
         "longitude": "-109.3344",
         "elevation": "0.1100",
         "site": "Rapanui, Easter Island, Chile",
         "network_id": 1
      }
   },
   {
      "model": "stations.station",
      "pk": 44,
      "fields": {
         "code": "SACV",
         "start_date": "959558400.00000",
         "end_date": "9999999999.99900",
         "latitude": "14.9702",
         "longitude": "-23.6085",
         "elevation": "0.3870",
         "site": "Santiago Island, Cape Verde",
         "network_id": 1
      }
   },
   {
      "model": "stations.station",
      "pk": 45,
      "fields": {
         "code": "SHEL",
         "start_date": "803520000.00000",
         "end_date": "9999999999.99900",
         "latitude": "-15.9594",
         "longitude": "-5.7455",
         "elevation": "0.5370",
         "site": "Horse Pasture, St. Helena Island",
         "network_id": 1
      }
   },
   {
      "model": "stations.station",
      "pk": 46,
      "fields": {
         "code": "SUR",
         "start_date": "657244800.00000",
         "end_date": "9999999999.99900",
         "latitude": "-32.3797",
         "longitude": "20.8117",
         "elevation": "1.7700",
         "site": "Sutherland, South Africa",
         "network_id": 1
      }
   },
   {
      "model": "stations.station",
      "pk": 47,
      "fields": {
         "code": "TAU",
         "start_date": "758764800.00000",
         "end_date": "9999999999.99900",
         "latitude": "-42.9099",
         "longitude": "147.3204",
         "elevation": "0.1320",
         "site": "Hobart, Tasmania, Australia",
         "network_id": 1
      }
   },
   {
      "model": "stations.station",
      "pk": 48,
      "fields": {
         "code": "TLY",
         "start_date": "655689600.00000",
         "end_date": "9999999999.99900",
         "latitude": "51.6807",
         "longitude": "103.6438",
         "elevation": "0.5790",
         "site": "Talaya, Russia",
         "network_id": 1
      }
   },
   {
      "model": "stations.station",
      "pk": 49,
      "fields": {
         "code": "UOSS",
         "start_date": "1241654400.00000",
         "end_date": "9999999999.99900",
         "latitude": "24.9453",
         "longitude": "56.2042",
         "elevation": "0.2844",
         "site": "Univ. of Sharjah, Sharjah, United Arab Emirates",
         "network_id": 1
      }
   },
   {
      "model": "stations.station",
      "pk": 50,
      "fields": {
         "code": "WRAB",
         "start_date": "764726400.00000",
         "end_date": "9999999999.99900",
         "latitude": "-19.9336",
         "longitude": "134.3600",
         "elevation": "0.3660",
         "site": "Tennant Creek, NT, Australia",
         "network_id": 1
      }
   },
   {
      "model": "stations.station",
      "pk": 51,
      "fields": {
         "code": "XBFO",
         "start_date": "1537142400.00000",
         "end_date": "9999999999.99900",
         "latitude": "48.3301",
         "longitude": "8.3296",
         "elevation": "0.6380",
         "site": "Black Forest Observatory, Schiltach, Germany",
         "network_id": 1
      }
   },
   {
      "model": "stations.station",
      "pk": 52,
      "fields": {
         "code": "XPF",
         "start_date": "755913600.00000",
         "end_date": "1136073599.90000",
         "latitude": "33.6092",
         "longitude": "-116.4533",
         "elevation": "1.2800",
         "site": "Pinon Flat, California, USA",
         "network_id": 1
      }
   },
   {
      "model": "stations.station",
      "pk": 53,
      "fields": {
         "code": "XPF",
         "start_date": "1136073600.00000",
         "end_date": "1182880799.90000",
         "latitude": "33.6107",
         "longitude": "-116.4555",
         "elevation": "1.2800",
         "site": "Pinon Flat, California, USA",
         "network_id": 1
      }
   },
   {
      "model": "stations.station",
      "pk": 54,
      "fields": {
         "code": "XPFO",
         "start_date": "1182816000.00000",
         "end_date": "9999999999.99900",
         "latitude": "33.6107",
         "longitude": "-116.4555",
         "elevation": "1.2800",
         "site": "Pinon Flat, California, USA",
         "network_id": 1
      }
   },
   {
      "model": "stations.station",
      "pk": 55,
      "fields": {
         "code": "SIMI",
         "start_date": "1475712000.00000",
         "end_date": "9999999999.99900",
         "latitude": "38.6585",
         "longitude": "69.0083",
         "elevation": "1.4005",
         "site": "Simiganj, Tajikistan",
         "network_id": 1
      }
   }
]